{
  "type": "FeatureCollection",
  "name": "gyres",
  "crs": {
    "type": "name",
    "properties": { "name": "urn:ogc:def:crs:OGC:1.3:CRS84" }
  },
  "features": [
    {
      "type": "Feature",
      "properties": {
        "name_en": "North Pacific gyre",
        "name_de": "Nordpazifikwirbel"
      },
      "geometry": {
        "type": "Point",
        "coordinates": [-144.552320618230596, 29.222278301119779]
      }
    },
    {
      "type": "Feature",
      "properties": {
        "name_en": "North Atlantic gyre",
        "name_de": "Nordatlantikwirbel"
      },
      "geometry": {
        "type": "Point",
        "coordinates": [-48.632578389255059, 28.069169219141838]
      }
    },
    {
      "type": "Feature",
      "properties": {
        "name_en": "South Atlantic gyre",
        "name_de": "Südatlantikwirbel"
      },
      "geometry": {
        "type": "Point",
        "coordinates": [-7.899537168731215, -28.59713277980233]
      }
    },
    {
      "type": "Feature",
      "properties": {
        "name_en": "South Pacific gyre",
        "name_de": "Südpazifikwirbel"
      },
      "geometry": {
        "type": "Point",
        "coordinates": [-101.191341254447138, -28.211873297431797]
      }
    },
    {
      "type": "Feature",
      "properties": {
        "name_en": "Indian Ocean gyre",
        "name_de": "Indischer-Ozean-Wirbel"
      },
      "geometry": {
        "type": "Point",
        "coordinates": [93.714071037306795, -31.627581858135585]
      }
    }
  ]
}
